Nombre	Longitud	Latitud	param_ew	param_ns	param_up	wrms_ew	wrms_ns	wrms_up
BAIR	-41.8600	-11.3100	-4.6826	13.0890	0.7381	2.1938	2.3895	4.7455
PEPE	-40.5100	-9.3800	-4.8616	13.4119	0.2883	1.7961	1.7815	5.3370
PIFL	-43.0400	-6.7900	-4.1485	13.2479	2.4405	3.9541	1.9076	6.6538
PISR	-42.7000	-9.0300	-4.7906	13.2259	-3.3257	2.0694	1.8816	5.5969
PITN	-42.7900	-5.1000	-3.7214	13.1547	-0.3442	1.7556	1.6751	5.9466
